<?xml version="1.0" encoding="UTF-8"?>
<kml xmlns="http://www.opengis.net/kml/2.2">
  <Document>
    <name>🇰🇷 首爾親子旅遊景點地圖</name>
    <description>7天6夜首爾親子旅遊景點完整地圖</description>
    
    <!-- 主題樂園 -->
    <Folder>
      <name>🎢 主題樂園</name>
      <Placemark>
        <name>樂天世界 Lotte World</name>
        <description>世界最大室內主題樂園，蠶室站</description>
        <Point><coordinates>127.0980,37.5111,0</coordinates></Point>
      </Placemark>
      <Placemark>
        <name>愛寶樂園 Everland</name>
        <description>韓國最大主題樂園，龍仁市</description>
        <Point><coordinates>127.2025,37.2942,0</coordinates></Point>
      </Placemark>
      <Placemark>
        <name>首爾樂園 Seoul Land</name>
        <description>經典老牌樂園，大公園站</description>
        <Point><coordinates>126.9947,37.4342,0</coordinates></Point>
      </Placemark>
      <Placemark>
        <name>兒童大公園 Children's Grand Park</name>
        <description>免費入園，兒童大公園站</description>
        <Point><coordinates>127.0742,37.5478,0</coordinates></Point>
      </Placemark>
    </Folder>
    
    <!-- 博物館/體驗館 -->
    <Folder>
      <name>🏛️ 博物館/體驗館</name>
      <Placemark>
        <name>國立兒童博物館</name>
        <description>專為兒童設計的互動博物館，景福宮站</description>
        <Point><coordinates>126.9769,37.5788,0</coordinates></Point>
      </Placemark>
      <Placemark>
        <name>三星兒童博物館</name>
        <description>科技互動體驗，蠶室</description>
        <Point><coordinates>127.1028,37.5125,0</coordinates></Point>
      </Placemark>
      <Placemark>
        <name>國立中央博物館兒童館</name>
        <description>專為兒童設計的展區，二村站</description>
        <Point><coordinates>126.9806,37.5239,0</coordinates></Point>
      </Placemark>
      <Placemark>
        <name>警察博物館</name>
        <description>穿警察制服拍照，安國站</description>
        <Point><coordinates>126.9847,37.5764,0</coordinates></Point>
      </Placemark>
      <Placemark>
        <name>消防博物館</name>
        <description>消防車體驗，新設洞</description>
        <Point><coordinates>127.0247,37.5761,0</coordinates></Point>
      </Placemark>
      <Placemark>
        <name>戰爭紀念館</name>
        <description>戶外展示飛機坦克，三角地站</description>
        <Point><coordinates>126.9772,37.5367,0</coordinates></Point>
      </Placemark>
      <Placemark>
        <name>韓國汽車博物館</name>
        <description>名車賽車展示，高陽市</description>
        <Point><coordinates>126.8678,37.6578,0</coordinates></Point>
      </Placemark>
      <Placemark>
        <name>現代Motorstudio高陽</name>
        <description>現代汽車體驗館，一山</description>
        <Point><coordinates>126.7517,37.6594,0</coordinates></Point>
      </Placemark>
      <Placemark>
        <name>Running Man體驗館</name>
        <description>綜藝節目主題體驗館，鐘閣站</description>
        <Point><coordinates>126.9833,37.5700,0</coordinates></Point>
      </Placemark>
      <Placemark>
        <name>泡菜博物館</name>
        <description>DIY製作泡菜，COEX Mall內</description>
        <Point><coordinates>127.0589,37.5119,0</coordinates></Point>
      </Placemark>
    </Folder>
    
    <!-- 動物園/水族館 -->
    <Folder>
      <name>🦁 動物園/水族館</name>
      <Placemark>
        <name>首爾大公園動物園</name>
        <description>韓國最大動物園，大公園站</description>
        <Point><coordinates>126.9897,37.4292,0</coordinates></Point>
      </Placemark>
      <Placemark>
        <name>兒童大公園動物園</name>
        <description>規模較小但免費，兒童大公園站</description>
        <Point><coordinates>127.0742,37.5478,0</coordinates></Point>
      </Placemark>
      <Placemark>
        <name>COEX水族館</name>
        <description>都市中的大型水族館，三成站</description>
        <Point><coordinates>127.0589,37.5119,0</coordinates></Point>
      </Placemark>
      <Placemark>
        <name>樂天世界水族館</name>
        <description>650種海洋生物，蠶室站</description>
        <Point><coordinates>127.1025,37.5125,0</coordinates></Point>
      </Placemark>
      <Placemark>
        <name>63水族館 Aqua Planet</name>
        <description>觀景台+水族館，汝矣島</description>
        <Point><coordinates>126.9400,37.5194,0</coordinates></Point>
      </Placemark>
    </Folder>
    
    <!-- 歷史文化景點 -->
    <Folder>
      <name>🏰 歷史文化景點</name>
      <Placemark>
        <name>景福宮</name>
        <description>穿韓服免費入宮，景福宮站</description>
        <Point><coordinates>126.9769,37.5796,0</coordinates></Point>
      </Placemark>
      <Placemark>
        <name>昌德宮</name>
        <description>世界文化遺產，安國站</description>
        <Point><coordinates>126.9910,37.5794,0</coordinates></Point>
      </Placemark>
      <Placemark>
        <name>北村韓屋村</name>
        <description>傳統韓屋街道，安國站</description>
        <Point><coordinates>126.9850,37.5828,0</coordinates></Point>
      </Placemark>
      <Placemark>
        <name>南山韓屋村</name>
        <description>免費韓屋村，忠武路站</description>
        <Point><coordinates>126.9942,37.5589,0</coordinates></Point>
      </Placemark>
      <Placemark>
        <name>N首爾塔</name>
        <description>首爾地標夜景，南山</description>
        <Point><coordinates>126.9883,37.5512,0</coordinates></Point>
      </Placemark>
      <Placemark>
        <name>仁寺洞</name>
        <description>傳統文化街，安國站</description>
        <Point><coordinates>126.9850,37.5744,0</coordinates></Point>
      </Placemark>
    </Folder>
    
    <!-- 公園/自然景點 -->
    <Folder>
      <name>🌳 公園/自然景點</name>
      <Placemark>
        <name>漢江公園汝矣島</name>
        <description>野餐騎腳踏車，汝矣島</description>
        <Point><coordinates>126.9319,37.5283,0</coordinates></Point>
      </Placemark>
      <Placemark>
        <name>盤浦漢江公園</name>
        <description>彩虹噴泉，盤浦</description>
        <Point><coordinates>126.9958,37.5133,0</coordinates></Point>
      </Placemark>
      <Placemark>
        <name>首爾林 Seoul Forest</name>
        <description>餵鹿大草坪，首爾林站</description>
        <Point><coordinates>127.0375,37.5444,0</coordinates></Point>
      </Placemark>
      <Placemark>
        <name>藍天公園 Haneul Park</name>
        <description>秋天芒草超美，世界盃競技場站</description>
        <Point><coordinates>126.8856,37.5678,0</coordinates></Point>
      </Placemark>
      <Placemark>
        <name>奧林匹克公園</name>
        <description>大草坪戶外雕塑，夢村土城站</description>
        <Point><coordinates>127.1214,37.5208,0</coordinates></Point>
      </Placemark>
      <Placemark>
        <name>南怡島 Nami Island</name>
        <description>銀杏大道，加平</description>
        <Point><coordinates>127.5256,37.7917,0</coordinates></Point>
      </Placemark>
      <Placemark>
        <name>小法國村 Petite France</name>
        <description>小王子主題，加平</description>
        <Point><coordinates>127.4922,37.7178,0</coordinates></Point>
      </Placemark>
    </Folder>
    
    <!-- 足球相關 -->
    <Folder>
      <name>⚽ 足球相關</name>
      <Placemark>
        <name>首爾世界盃競技場</name>
        <description>2002世界盃主場館，FC Seoul主場</description>
        <Point><coordinates>126.8972,37.5683,0</coordinates></Point>
      </Placemark>
    </Folder>
    
    <!-- 滑冰場 -->
    <Folder>
      <name>⛸️ 滑冰場</name>
      <Placemark>
        <name>首爾廣場滑冰場</name>
        <description>冬季限定戶外滑冰，市廳站</description>
        <Point><coordinates>126.9778,37.5664,0</coordinates></Point>
      </Placemark>
      <Placemark>
        <name>樂天世界室內滑冰場</name>
        <description>全年開放，蠶室站</description>
        <Point><coordinates>127.0980,37.5111,0</coordinates></Point>
      </Placemark>
    </Folder>
    
    <!-- 購物區 -->
    <Folder>
      <name>🛍️ 購物區</name>
      <Placemark>
        <name>明洞 Myeongdong</name>
        <description>最熱鬧購物街，明洞站</description>
        <Point><coordinates>126.9858,37.5608,0</coordinates></Point>
      </Placemark>
      <Placemark>
        <name>弘大 Hongdae</name>
        <description>年輕人聚集地，弘大入口站</description>
        <Point><coordinates>126.9236,37.5572,0</coordinates></Point>
      </Placemark>
      <Placemark>
        <name>COEX Mall</name>
        <description>首爾最大地下購物中心，三成站</description>
        <Point><coordinates>127.0589,37.5119,0</coordinates></Point>
      </Placemark>
      <Placemark>
        <name>樂天世界Mall</name>
        <description>購物+樂天塔，蠶室站</description>
        <Point><coordinates>127.1025,37.5133,0</coordinates></Point>
      </Placemark>
      <Placemark>
        <name>東大門DDP</name>
        <description>設計廣場，東大門歷史文化公園站</description>
        <Point><coordinates>127.0094,37.5675,0</coordinates></Point>
      </Placemark>
      <Placemark>
        <name>IFC Mall汝矣島</name>
        <description>高檔購物中心，汝矣島站</description>
        <Point><coordinates>126.9256,37.5256,0</coordinates></Point>
      </Placemark>
    </Folder>
    
    <!-- 表演娛樂 -->
    <Folder>
      <name>🎭 表演/娛樂</name>
      <Placemark>
        <name>NANTA亂打秀 明洞</name>
        <description>無對白廚房打擊秀，明洞</description>
        <Point><coordinates>126.9867,37.5617,0</coordinates></Point>
      </Placemark>
      <Placemark>
        <name>Kakao Friends弘大店</name>
        <description>超大Ryan公仔，弘大</description>
        <Point><coordinates>126.9222,37.5567,0</coordinates></Point>
      </Placemark>
      <Placemark>
        <name>LINE FRIENDS明洞店</name>
        <description>巨型熊大莎莉，明洞</description>
        <Point><coordinates>126.9850,37.5611,0</coordinates></Point>
      </Placemark>
    </Folder>

  </Document>
</kml>
